Name,Phone,Phones,Average Rating,lat,lon,Fulladdress
Dr Rohan Jahagirdar,080 4803 4070,"080 4803 4070, +91 80 4803 4070",4.7,18.524401,73.8438082,"MJM Hospital Road, Ghole Rd, Shivajinagar, Pune, Maharashtra 411004"
Dr Ankit Patel - Trimurti Mind & Emotions Clinic,080075 68745,"080075 68745, +91 80075 68745",4.8,18.5395738,73.8977622,"A3, Ashiyana Park, Opposite to Lane no 5, N Main Rd, Koregaon Park, Pune, Maharashtra 411001"
The Beautiful Mind,082378 24685,"082378 24685, +91 82378 24685",4.9,18.501696,73.8158595,"S-3, Rohan Chambers Above Sujata Mastani Shop, Karve Statue Square, Kothrud, Pune, Maharashtra 411038"
Dr. Niket Kasar ,098237 83083,"098237 83083, +91 98237 83083",4.6,18.509385,73.848362,"1st Floor, Shivmangal Apts, 1535, Lokmanya Bal Gangadhar Tilak Rd, near Heera Photo Studio, Sadashiv Peth, Pune, Maharashtra 411030"
Dr. Supriya Lonkar ,093222 10590,"093222 10590, +91 93222 10590",4.9,18.486128,73.796409,"R Qube Building, 18.486121, 73.796415, Warje Atul Nagar Rd, AtulNagar Phase I, Atul Nagar, Warje, Pune, Maharashtra 411058"
Manoshanti - Dr Rishikesh V Behere ,078880 49087,"078880 49087, +91 78880 49087",3.8,18.5641212,73.7744771,"101, The Square, Veerbhadra Nagar Rd, Behind KFC, Baner, Pune, Maharashtra 411045"
Dr ROHAN JAHAGIRDAR ,093724 16491,"093724 16491, +91 93724 16491",4.9,18.5456253,73.9008041,"Cloudnine Hospital,Waves, Survey No. 212/1B Plot no. 59, C Ln, Prathamesh Society, Kalyani Nagar, Pune, Maharashtra 411006"
Dr Swapnil Deshmukh,099232 91312,"099232 91312, +91 99232 91312",4.8,18.5158013,73.8418181,"Shreeyash Hospital, opposite Chitale Bandhu Mithaiwale, Deccan Gymkhana, Pune, Maharashtra 411004"
Dr. Bhalchandra Kalmegh ,088881 08850,"088881 08850, +91 88881 08850",4.5,18.4795179,73.8244067,"Neelay Complex, Office No.1, Ist Floor, Sinhgad Rd, above Monginis, Anand Nagar, Pune, Maharashtra 411041"
